$GNRMC,205630.000,A,5454.1478,N,00121.5002,W,0.00,87.00,110122,,,D*54
$GNVTG,87.00,T,,M,0.00,N,0.00,K,D*19
$GNGGA,205630.000,5454.1478,N,00121.5002,W,2,14,0.74,18.2,M,47.6,M,,*56
$GPGSA,A,3,18,16,27,05,23,26,10,,,,,,1.10,0.74,0.81*02
$BDGSA,A,3,24,08,20,29,25,13,19,,,,,,1.10,0.74,0.81*13
$GPGSV,3,1,11,16,74,250,21,18,54,069,39,26,51,166,32,27,49,271,20*78
$GPGSV,3,2,11,23,30,121,37,08,17,271,,07,13,330,16,10,13,150,31*71
$GPGSV,3,3,11,40,10,118,32,05,08,024,36,29,04,086,37*4E
$BDGSV,3,1,10,24,50,248,15,12,37,250,,13,26,041,33,26,26,192,16*6C
$BDGSV,3,2,10,25,24,315,21,08,18,034,32,20,18,044,37,19,17,094,46*64
$BDGSV,3,3,10,05,09,114,28,29,08,073,43*6B
$GNGLL,5454.1478,N,00121.5002,W,205630.000,A,D*5D

$GNRMC,205631.000,A,5454.1478,N,00121.5002,W,0.00,87.00,110122,,,D*55
$GNVTG,87.00,T,,M,0.00,N,0.00,K,D*19
$GNGGA,205631.000,5454.1478,N,00121.5002,W,2,15,0.69,18.2,M,47.6,M,,*5A
$GPGSA,A,3,18,16,27,05,23,26,10,,,,,,1.04,0.69,0.78*0D
$BDGSA,A,3,24,08,20,29,26,25,13,19,,,,,1.04,0.69,0.78*18
$GPGSV,3,1,11,16,74,250,21,18,54,069,39,26,51,166,32,27,49,271,20*78
$GPGSV,3,2,11,23,30,121,37,08,17,271,,07,13,330,15,10,13,150,32*71
$GPGSV,3,3,11,40,10,118,32,05,08,024,36,29,04,086,37*4E
$BDGSV,3,1,10,24,50,248,16,12,37,250,,13,26,041,33,26,26,192,14*6D
$BDGSV,3,2,10,25,24,315,21,08,18,034,32,20,18,044,37,19,17,094,46*64
$BDGSV,3,3,10,05,09,114,28,29,08,073,43*6B
$GNGLL,5454.1478,N,00121.5002,W,205631.000,A,D*5C

$GNRMC,205632.000,A,5454.1478,N,00121.5002,W,0.00,87.00,110122,,,D*56
$GNVTG,87.00,T,,M,0.00,N,0.00,K,D*19
$GNGGA,205632.000,5454.1478,N,00121.5002,W,2,14,0.72,18.2,M,47.6,M,,*52
$GPGSA,A,3,18,16,27,05,23,26,10,,,,,,1.06,0.72,0.78*05
$BDGSA,A,3,08,20,29,26,25,13,19,,,,,,1.06,0.72,0.78*16
$GPGSV,3,1,11,16,74,250,21,18,54,069,39,26,51,166,32,27,49,271,20*78
$GPGSV,3,2,11,23,30,121,37,08,17,271,,07,13,330,14,10,13,150,32*70
$GPGSV,3,3,11,40,10,118,32,05,08,024,36,29,04,086,37*4E
$BDGSV,3,1,10,24,50,248,15,12,37,250,,13,26,041,33,26,26,192,15*6F
$BDGSV,3,2,10,25,24,315,21,08,18,034,32,20,18,044,37,19,17,093,46*63
$BDGSV,3,3,10,05,09,114,28,29,08,073,43*6B
$GNGLL,5454.1478,N,00121.5002,W,205632.000,A,D*5F

$GNRMC,205633.000,A,5454.1478,N,00121.5002,W,0.00,87.00,110122,,,D*57
$GNVTG,87.00,T,,M,0.00,N,0.00,K,D*19
$GNGGA,205633.000,5454.1478,N,00121.5002,W,2,14,0.72,18.2,M,47.6,M,,*53
$GPGSA,A,3,18,16,27,05,23,26,10,,,,,,1.06,0.72,0.78*05
$BDGSA,A,3,08,20,29,26,25,13,19,,,,,,1.06,0.72,0.78*16
$GPGSV,3,1,11,16,74,250,21,18,54,069,39,26,51,166,32,27,49,271,20*78
$GPGSV,3,2,11,23,30,121,36,08,17,271,,07,13,330,13,10,13,150,32*76
$GPGSV,3,3,11,40,10,118,32,05,08,024,36,29,04,086,37*4E
$BDGSV,3,1,10,24,50,248,15,12,37,250,,13,26,041,34,26,26,192,16*6B
$BDGSV,3,2,10,25,24,315,21,08,18,034,32,20,18,043,37,19,17,093,46*64
$BDGSV,3,3,10,05,09,114,28,29,08,073,43*6B
$GNGLL,5454.1478,N,00121.5002,W,205633.000,A,D*5E
$GNRMC,205634.000,A,5454.1478,N,00121.5002,W,0.00,87.00,110122,,,D*50
$GNVTG,87.00,T,,M,0.00,N,0.00,K,D*19
$GNGGA,205634.000,5454.1478,N,00121.5002,W,2,14,0.74,18.2,M,47.6,M,,*52
$GPGSA,A,3,18,16,27,05,23,26,10,,,,,,1.10,0.74,0.81*02
$BDGSA,A,3,24,08,20,29,25,13,19,,,,,,1.10,0.74,0.81*13
$GPGSV,3,1,11,16,74,250,21,18,54,069,39,26,51,166,32,27,49,271,20*78
$GPGSV,3,2,11,23,30,121,36,08,17,271,,07,13,330,15,10,13,150,32*70
$GPGSV,3,3,11,40,10,118,32,05,08,024,36,29,04,086,37*4E
$BDGSV,3,1,10,24,50,248,16,12,37,250,,13,26,041,34,26,26,192,15*6B
$BDGSV,3,2,10,25,24,315,21,08,18,034,32,20,18,043,37,19,17,093,46*64
$BDGSV,3,3,10,05,09,114,28,29,08,073,43*6B
$GNGLL,5454.1478,N,00121.5002,W,205634.000,A,D*59
$GNRMC,205635.000,A,5454.1478,N,00121.5002,W,0.00,87.00,110122,,,D*51
$GNVTG,87.00,T,,M,0.00,N,0.00,K,D*19
$GNGGA,205635.000,5454.1478,N,00121.5002,W,2,14,0.74,18.2,M,47.6,M,,*53
$GPGSA,A,3,18,16,27,05,23,26,10,,,,,,1.10,0.74,0.81*02
$BDGSA,A,3,24,08,20,29,25,13,19,,,,,,1.10,0.74,0.81*13
$GPGSV,3,1,11,16,74,250,21,18,54,069,39,26,51,166,32,27,49,271,20*78
$GPGSV,3,2,11,23,30,121,36,08,17,271,,07,13,330,15,10,13,150,32*70
$GPGSV,3,3,11,40,10,118,32,05,08,024,36,29,04,086,37*4E
$BDGSV,3,1,10,24,50,248,16,12,37,250,,13,26,041,34,26,26,192,14*6A
$BDGSV,3,2,10,25,24,315,20,08,18,034,32,20,18,043,37,19,17,093,46*65
$BDGSV,3,3,10,05,09,114,28,29,08,073,43*6B
$GNGLL,5454.1478,N,00121.5002,W,205635.000,A,D*58
$GNRMC,205636.000,A,5454.1478,N,00121.5002,W,0.00,87.00,110122,,,D*52
$GNVTG,87.00,T,,M,0.00,N,0.00,K,D*19
$GNGGA,205636.000,5454.1478,N,00121.5002,W,2,13,0.78,18.2,M,47.6,M,,*5B
$GPGSA,A,3,18,16,27,05,23,26,10,,,,,,1.13,0.78,0.81*0D
$BDGSA,A,3,08,20,29,25,13,19,,,,,,,1.13,0.78,0.81*1A
$GPGSV,3,1,11,16,74,250,21,18,54,069,39,26,51,166,32,27,49,271,20*78
$GPGSV,3,2,11,23,30,121,36,08,17,271,,07,13,330,14,10,13,150,32*71
$GPGSV,3,3,11,40,10,118,32,05,08,024,36,29,04,086,37*4E
$BDGSV,3,1,10,24,50,248,16,12,37,250,,13,26,041,34,26,26,192,14*6A
$BDGSV,3,2,10,25,24,315,20,08,18,034,32,20,18,043,37,19,17,093,46*65
$BDGSV,3,3,10,05,09,114,28,29,08,073,43*6B
$GNGLL,5454.1478,N,00121.5002,W,205636.000,A,D*5B
$GNRMC,205637.000,A,5454.1478,N,00121.5002,W,0.00,87.00,110122,,,D*53
$GNVTG,87.00,T,,M,0.00,N,0.00,K,D*19
$GNGGA,205637.000,5454.1478,N,00121.5002,W,2,13,0.78,18.2,M,47.6,M,,*5A
$GPGSA,A,3,18,16,27,05,23,26,10,,,,,,1.13,0.78,0.81*0D
$BDGSA,A,3,08,20,29,25,13,19,,,,,,,1.13,0.78,0.81*1A
$GPGSV,3,1,11,16,74,250,22,18,54,069,39,26,51,166,31,27,49,271,20*78
$GPGSV,3,2,11,23,30,121,36,08,17,271,,07,13,330,15,10,13,150,32*70
$GPGSV,3,3,11,40,10,118,32,05,08,024,36,29,04,086,37*4E
$BDGSV,3,1,10,24,49,247,16,12,37,250,,13,26,041,34,26,26,192,11*68
$BDGSV,3,2,10,25,24,315,20,08,18,034,32,20,18,043,37,19,17,093,46*65
$BDGSV,3,3,10,05,09,114,28,29,08,073,43*6B
$GNGLL,5454.1478,N,00121.5002,W,205637.000,A,D*5A
$GNRMC,205638.000,A,5454.1478,N,00121.5002,W,0.00,87.00,110122,,,D*5C
$GNVTG,87.00,T,,M,0.00,N,0.00,K,D*19
$GNGGA,205638.000,5454.1478,N,00121.5002,W,2,13,0.86,18.2,M,47.6,M,,*54
$GPGSA,A,3,18,16,27,05,23,26,10,,,,,,1.63,0.86,1.38*08
$BDGSA,A,3,08,20,29,25,13,19,,,,,,,1.63,0.86,1.38*1F
$GPGSV,3,1,11,16,74,250,22,18,54,069,39,26,51,166,31,27,49,271,20*78
$GPGSV,3,2,11,23,30,121,36,08,17,271,,07,13,330,17,10,13,150,32*72
$GPGSV,3,3,11,40,10,118,32,05,08,024,36,29,04,086,37*4E
$BDGSV,3,1,10,24,49,247,,12,37,250,,13,26,041,34,26,26,192,12*6C
$BDGSV,3,2,10,25,24,315,20,08,18,034,32,20,18,043,36,19,17,093,46*64
$BDGSV,3,3,10,05,09,114,27,29,08,073,43*64
$GNGLL,5454.1478,N,00121.5002,W,205638.000,A,D*55
$GNRMC,205639.000,A,5454.1478,N,00121.5002,W,0.00,87.00,110122,,,D*5D
$GNVTG,87.00,T,,M,0.00,N,0.00,K,D*19
$GNGGA,205639.000,5454.1478,N,00121.5002,W,2,14,0.80,18.2,M,47.6,M,,*54
$GPGSA,A,3,18,16,27,05,07,23,26,10,,,,,1.51,0.80,1.28*09
$BDGSA,A,3,08,20,29,25,13,19,,,,,,,1.51,0.80,1.28*19
$GPGSV,3,1,11,16,74,250,22,18,54,069,39,26,51,166,31,27,49,271,20*78
$GPGSV,3,2,11,23,30,121,37,08,17,271,,07,13,330,20,10,13,150,32*77
$GPGSV,3,3,11,40,10,118,32,05,08,024,36,29,04,086,37*4E
$BDGSV,3,1,10,24,49,247,,12,37,250,,13,26,041,33,26,25,192,15*6F
$BDGSV,3,2,10,25,24,315,20,08,18,034,32,20,18,043,36,19,17,093,45*67
$BDGSV,3,3,10,05,09,114,27,29,08,073,43*64
$GNGLL,5454.1478,N,00121.5002,W,205639.000,A,D*54
$GNRMC,205640.000,A,5454.1478,N,00121.5002,W,0.00,87.00,110122,,,D*53
$GNVTG,87.00,T,,M,0.00,N,0.00,K,D*19
$GNGGA,205640.000,5454.1478,N,00121.5002,W,2,14,0.74,18.2,M,47.6,M,,*51
$GPGSA,A,3,18,16,27,05,07,23,26,10,,,,,1.08,0.74,0.79*0B
$BDGSA,A,3,08,20,29,25,13,19,,,,,,,1.08,0.74,0.79*1B
$GPGSV,3,1,11,16,74,250,22,18,54,069,39,26,51,166,31,27,49,271,20*78
$GPGSV,3,2,11,23,30,121,37,08,17,271,,07,13,330,20,10,13,150,32*77
$GPGSV,3,3,11,40,10,118,32,05,08,024,36,29,04,086,37*4E
$BDGSV,3,1,10,24,49,247,,12,37,250,,13,26,041,33,26,25,192,13*69
$BDGSV,3,2,10,25,24,315,21,08,18,034,32,20,18,043,36,19,17,093,45*66
$BDGSV,3,3,10,05,09,114,27,29,08,073,43*64
$GNGLL,5454.1478,N,00121.5002,W,205640.000,A,D*5A
$GNRMC,205641.000,A,5454.1478,N,00121.5002,W,0.00,87.00,110122,,,D*52
$GNVTG,87.00,T,,M,0.00,N,0.00,K,D*19
$GNGGA,205641.000,5454.1478,N,00121.5002,W,2,14,0.74,18.2,M,47.6,M,,*50
$GPGSA,A,3,18,16,27,05,07,23,26,10,,,,,1.08,0.74,0.79*0B
$BDGSA,A,3,08,20,29,25,13,19,,,,,,,1.08,0.74,0.79*1B
$GPGSV,3,1,11,16,74,250,22,18,54,069,40,26,51,166,31,27,49,271,20*76
$GPGSV,3,2,11,23,30,121,37,08,17,271,,07,13,330,21,10,13,150,32*76
$GPGSV,3,3,11,40,10,118,32,05,08,024,36,29,04,086,37*4E
$BDGSV,3,1,10,24,49,247,,12,37,250,,13,26,041,33,26,25,192,*6B
$BDGSV,3,2,10,25,24,315,21,08,18,034,32,20,18,043,36,19,17,093,45*66
$BDGSV,3,3,10,05,09,114,27,29,08,073,43*64
$GNGLL,5454.1478,N,00121.5002,W,205641.000,A,D*5B
$GNRMC,205642.000,A,5454.1478,N,00121.5002,W,0.00,87.00,110122,,,D*51
$GNVTG,87.00,T,,M,0.00,N,0.00,K,D*19
$GNGGA,205642.000,5454.1478,N,00121.5002,W,2,14,0.74,18.2,M,47.6,M,,*53
$GPGSA,A,3,18,16,27,05,07,23,26,10,,,,,1.08,0.74,0.79*0B
$BDGSA,A,3,08,20,29,25,13,19,,,,,,,1.08,0.74,0.79*1B
$GPGSV,3,1,11,16,74,250,22,18,54,069,40,26,51,166,31,27,49,271,20*76
$GPGSV,3,2,11,23,30,121,37,08,17,271,,07,13,330,22,10,13,150,32*75
$GPGSV,3,3,11,40,10,118,32,05,08,024,36,29,04,086,37*4E
$BDGSV,3,1,10,24,49,247,,12,37,250,,13,26,041,33,26,25,192,*6B
$BDGSV,3,2,10,25,24,315,21,08,18,034,32,20,18,043,36,19,17,093,45*66
$BDGSV,3,3,10,05,09,114,27,29,08,073,43*64
$GNGLL,5454.1478,N,00121.5002,W,205642.000,A,D*58
$GNRMC,205643.000,A,5454.1478,N,00121.5002,W,0.00,87.00,110122,,,D*50
$GNVTG,87.00,T,,M,0.00,N,0.00,K,D*19
$GNGGA,205643.000,5454.1478,N,00121.5002,W,2,14,0.80,18.2,M,47.6,M,,*59
$GPGSA,A,3,18,16,27,05,07,23,26,10,,,,,1.51,0.80,1.28*09
$BDGSA,A,3,08,20,29,25,13,19,,,,,,,1.51,0.80,1.28*19
$GPGSV,3,1,11,16,74,250,22,18,54,069,40,26,51,166,31,27,49,271,20*76
$GPGSV,3,2,11,23,30,121,37,08,17,271,,07,13,330,23,10,13,150,33*75
$GPGSV,3,3,11,40,10,118,32,05,08,024,36,29,04,086,37*4E
$BDGSV,3,1,10,24,49,247,,12,37,250,,13,26,041,33,26,25,192,*6B
$BDGSV,3,2,10,25,24,315,21,08,18,034,32,20,18,043,36,19,17,093,45*66
$BDGSV,3,3,10,05,09,114,27,29,08,073,43*64
$GNGLL,5454.1478,N,00121.5002,W,205643.000,A,D*59
$GNRMC,205644.000,A,5454.1478,N,00121.5002,W,0.00,87.00,110122,,,D*57
$GNVTG,87.00,T,,M,0.00,N,0.00,K,D*19
$GNGGA,205644.000,5454.1478,N,00121.5002,W,2,14,0.80,18.2,M,47.6,M,,*5E
$GPGSA,A,3,18,16,27,05,07,23,26,10,,,,,1.51,0.80,1.28*09
$BDGSA,A,3,08,20,29,25,13,19,,,,,,,1.51,0.80,1.28*19
$GPGSV,3,1,11,16,74,250,22,18,54,069,40,26,51,166,31,27,49,271,21*77
$GPGSV,3,2,11,23,30,121,37,08,17,271,,07,13,330,23,10,13,150,33*75
$GPGSV,3,3,11,40,10,118,32,05,08,024,36,29,04,086,38*41
$BDGSV,3,1,10,24,49,247,,12,37,250,,13,26,041,34,26,25,192,*6C
$BDGSV,3,2,10,25,24,315,21,08,18,034,32,20,18,043,36,19,17,093,45*66
$BDGSV,3,3,10,05,09,114,27,29,08,073,43*64
$GNGLL,5454.1478,N,00121.5002,W,205644.000,A,D*5E
$GNRMC,205645.000,A,5454.1478,N,00121.5002,W,0.00,87.00,110122,,,D*56
$GNVTG,87.00,T,,M,0.00,N,0.00,K,D*19
$GNGGA,205645.000,5454.1478,N,00121.5002,W,2,14,0.74,18.2,M,47.6,M,,*54
$GPGSA,A,3,18,16,27,05,07,23,26,10,,,,,1.08,0.74,0.79*0B
$BDGSA,A,3,08,20,29,25,13,19,,,,,,,1.08,0.74,0.79*1B
$GPGSV,3,1,11,16,74,250,22,18,54,069,40,26,51,166,31,27,49,271,22*74
$GPGSV,3,2,11,23,30,121,37,08,17,271,,07,13,330,23,10,13,150,33*75
$GPGSV,3,3,11,40,10,118,32,05,08,024,36,29,04,086,38*41
$BDGSV,3,1,10,24,49,247,,12,37,250,,13,26,041,34,26,25,192,*6C
$BDGSV,3,2,10,25,24,315,21,08,18,034,32,20,18,043,36,19,17,093,45*66
$BDGSV,3,3,10,05,09,114,27,29,08,073,43*64
$GNGLL,5454.1478,N,00121.5002,W,205645.000,A,D*5F
$GNRMC,205646.000,A,5454.1478,N,00121.5002,W,0.00,87.00,110122,,,D*55
$GNVTG,87.00,T,,M,0.00,N,0.00,K,D*19
$GNGGA,205646.000,5454.1478,N,00121.5002,W,2,14,0.80,18.2,M,47.6,M,,*5C
$GPGSA,A,3,18,16,27,05,07,23,26,10,,,,,1.51,0.80,1.28*09
$BDGSA,A,3,08,20,29,25,13,19,,,,,,,1.51,0.80,1.28*19
$GPGSV,3,1,11,16,74,250,22,18,54,069,40,26,51,166,31,27,49,271,22*74
$GPGSV,3,2,11,23,30,121,37,08,17,271,,07,13,330,24,10,13,150,33*72
$GPGSV,3,3,11,40,10,118,32,05,08,024,36,29,04,086,38*41
$BDGSV,3,1,10,24,49,247,,12,37,250,,13,26,041,34,26,25,192,*6C
$BDGSV,3,2,10,25,24,315,22,08,18,034,32,20,18,043,36,19,17,093,45*65
$BDGSV,3,3,10,05,09,114,28,29,08,073,43*6B
$GNGLL,5454.1478,N,00121.5002,W,205646.000,A,D*5C
$GNRMC,205647.000,A,5454.1478,N,00121.5002,W,0.00,87.00,110122,,,D*54
$GNVTG,87.00,T,,M,0.00,N,0.00,K,D*19
$GNGGA,205647.000,5454.1478,N,00121.5002,W,2,14,0.80,18.2,M,47.6,M,,*5D
$GPGSA,A,3,18,16,27,05,07,23,26,10,,,,,1.51,0.80,1.28*09
$BDGSA,A,3,08,20,29,25,13,19,,,,,,,1.51,0.80,1.28*19
$GPGSV,3,1,11,16,74,250,22,18,54,069,40,26,51,166,31,27,49,271,22*74
$GPGSV,3,2,11,23,30,121,37,08,17,271,,07,13,330,24,10,13,150,33*72
$GPGSV,3,3,11,40,10,118,32,05,08,024,36,29,04,086,38*41
$BDGSV,3,1,10,24,49,247,,12,37,250,,13,26,041,34,26,25,192,*6C
$BDGSV,3,2,10,25,24,315,23,08,18,034,32,20,18,043,36,19,17,093,45*64
$BDGSV,3,3,10,05,09,114,28,29,08,073,43*6B
$GNGLL,5454.1478,N,00121.5002,W,205647.000,A,D*5D
$GNRMC,205648.000,A,5454.1478,N,00121.5002,W,0.00,87.00,110122,,,D*5B
$GNVTG,87.00,T,,M,0.00,N,0.00,K,D*19
$GNGGA,205648.000,5454.1478,N,00121.5002,W,2,14,0.80,18.2,M,47.6,M,,*52
$GPGSA,A,3,18,16,27,05,07,23,26,10,,,,,1.51,0.80,1.28*09
$BDGSA,A,3,08,20,29,25,13,19,,,,,,,1.51,0.80,1.28*19
$GPGSV,3,1,11,16,74,250,23,18,54,069,40,26,51,166,31,27,49,271,22*75
$GPGSV,3,2,11,23,30,121,37,08,17,271,,07,13,330,25,10,13,150,33*73
$GPGSV,3,3,11,40,10,118,32,05,08,023,37,29,04,086,38*47
$BDGSV,3,1,10,24,49,247,,12,37,250,,13,26,041,34,26,25,192,*6C
$BDGSV,3,2,10,25,24,315,23,08,18,034,32,20,18,043,36,19,17,093,45*64
$BDGSV,3,3,10,05,09,114,28,29,08,073,43*6B
$GNGLL,5454.1478,N,00121.5002,W,205648.000,A,D*52
$GNRMC,205649.000,A,5454.1478,N,00121.5002,W,0.00,87.00,110122,,,D*5A
$GNVTG,87.00,T,,M,0.00,N,0.00,K,D*19
$GNGGA,205649.000,5454.1478,N,00121.5002,W,2,14,0.74,18.2,M,47.6,M,,*58
$GPGSA,A,3,18,16,27,05,07,23,26,10,,,,,1.08,0.74,0.79*0B
$BDGSA,A,3,08,20,29,25,13,19,,,,,,,1.08,0.74,0.79*1B
$GPGSV,3,1,11,16,74,250,23,18,54,069,40,26,51,166,30,27,49,271,22*74
$GPGSV,3,2,11,23,30,121,37,08,17,271,,07,13,330,25,10,13,150,33*73
$GPGSV,3,3,11,40,10,118,32,05,08,023,37,29,04,086,38*47
$BDGSV,3,1,10,24,49,247,,12,37,250,,13,26,041,34,26,25,192,17*6A
$BDGSV,3,2,10,25,24,315,25,08,18,034,32,20,18,043,36,19,17,093,45*62
$BDGSV,3,3,10,05,09,114,28,29,08,073,43*6B
$GNGLL,5454.1478,N,00121.5002,W,205649.000,A,D*53
$GNRMC,205650.000,A,5454.1478,N,00121.5002,W,0.00,87.00,110122,,,D*52
$GNVTG,87.00,T,,M,0.00,N,0.00,K,D*19
$GNGGA,205650.000,5454.1478,N,00121.5002,W,2,14,0.72,18.2,M,47.6,M,,*56
$GPGSA,A,3,18,16,27,05,07,23,26,10,,,,,1.06,0.72,0.77*0D
$BDGSA,A,3,26,08,20,29,13,19,,,,,,,1.06,0.72,0.77*1E
$GPGSV,3,1,11,16,74,250,23,18,54,069,40,26,51,166,30,27,49,271,22*74
$GPGSV,3,2,11,23,30,121,37,08,17,271,,07,14,329,25,10,13,150,33*7C
$GPGSV,3,3,11,40,10,118,32,05,08,023,37,29,04,086,38*47
$BDGSV,3,1,10,24,49,247,,12,37,250,,13,26,041,34,26,25,192,17*6A
$BDGSV,3,2,10,25,24,315,25,08,18,034,32,20,18,043,36,19,17,093,45*62
$BDGSV,3,3,10,05,09,114,28,29,08,073,43*6B
$GNGLL,5454.1478,N,00121.5002,W,205650.000,A,D*5B
$GNRMC,205651.000,A,5454.1478,N,00121.5002,W,0.00,87.00,110122,,,D*53
$GNVTG,87.00,T,,M,0.00,N,0.00,K,D*19
$GNGGA,205651.000,5454.1478,N,00121.5002,W,2,15,0.70,18.2,M,47.6,M,,*54
$GPGSA,A,3,18,16,27,05,07,23,26,10,,,,,1.38,0.70,1.19*0B
$BDGSA,A,3,26,08,20,29,25,13,19,,,,,,1.38,0.70,1.19*1F
$GPGSV,3,1,11,16,74,250,23,18,54,069,40,26,51,166,30,27,49,271,22*74
$GPGSV,3,2,11,23,30,121,37,08,18,271,,07,14,329,25,10,13,150,33*73
$GPGSV,3,3,11,40,10,118,32,05,08,023,37,29,04,086,38*47
$BDGSV,3,1,10,24,49,247,,12,37,250,,13,26,041,34,26,25,192,17*6A
$BDGSV,3,2,10,25,24,315,26,08,18,034,32,20,18,043,36,19,17,093,45*61
$BDGSV,3,3,10,05,09,114,28,29,08,073,43*6B
$GNGLL,5454.1478,N,00121.5002,W,205651.000,A,D*5A
$GNRMC,205652.000,A,5454.1478,N,00121.5002,W,0.00,87.00,110122,,,D*50
$GNVTG,87.00,T,,M,0.00,N,0.00,K,D*19
$GNGGA,205652.000,5454.1478,N,00121.5002,W,2,16,0.64,18.2,M,47.6,M,,*51
$GPGSA,A,3,18,16,27,05,07,23,26,10,,,,,1.00,0.64,0.76*0D
$BDGSA,A,3,26,08,20,29,24,25,13,19,,,,,1.00,0.64,0.76*1F
$GPGSV,3,1,11,16,74,250,23,18,54,069,40,26,51,166,30,27,49,271,22*74
$GPGSV,3,2,11,23,30,121,37,08,18,271,,07,14,329,26,10,13,150,33*70
$GPGSV,3,3,11,40,10,118,32,05,08,023,37,29,04,086,38*47
$BDGSV,3,1,10,24,49,247,17,12,37,250,,13,26,041,34,26,25,192,17*6C
$BDGSV,3,2,10,25,24,315,26,08,18,034,32,20,18,043,36,19,17,093,45*61
$BDGSV,3,3,10,05,09,114,28,29,08,073,43*6B
$GNGLL,5454.1478,N,00121.5002,W,205652.000,A,D*59
$GNRMC,205653.000,A,5454.1478,N,00121.5002,W,0.00,87.00,110122,,,D*51
$GNVTG,87.00,T,,M,0.00,N,0.00,K,D*19
$GNGGA,205653.000,5454.1478,N,00121.5002,W,2,16,0.68,18.2,M,47.6,M,,*5C
$GPGSA,A,3,18,16,27,05,07,23,26,10,,,,,1.36,0.68,1.18*0D
$BDGSA,A,3,26,08,20,29,24,25,13,19,,,,,1.36,0.68,1.18*1F
$GPGSV,3,1,11,16,74,250,23,18,54,069,40,26,51,166,30,27,49,271,22*74
$GPGSV,3,2,11,23,30,121,37,08,18,271,,07,14,329,26,10,14,149,33*7F
$GPGSV,3,3,11,40,10,118,32,05,08,023,37,29,04,086,38*47
$BDGSV,3,1,10,24,49,247,17,12,37,250,,13,26,041,34,26,25,192,17*6C
$BDGSV,3,2,10,25,24,315,25,08,18,034,32,20,18,043,36,19,17,093,45*62
$BDGSV,3,3,10,05,09,114,28,29,08,073,43*6B
$GNGLL,5454.1478,N,00121.5002,W,205653.000,A,D*58
$GNRMC,205654.000,A,5454.1478,N,00121.5002,W,0.00,87.00,110122,,,D*56
$GNVTG,87.00,T,,M,0.00,N,0.00,K,D*19
$GNGGA,205654.000,5454.1478,N,00121.5002,W,2,15,0.70,18.2,M,47.6,M,,*51
$GPGSA,A,3,18,16,27,05,07,23,26,10,,,,,1.38,0.70,1.19*0B
$BDGSA,A,3,26,08,20,29,25,13,19,,,,,,1.38,0.70,1.19*1F
$GPGSV,3,1,11,16,74,250,23,18,54,069,40,26,51,166,30,27,49,271,22*74
$GPGSV,3,2,11,23,30,121,37,08,18,271,,07,14,329,26,10,14,149,33*7F
$GPGSV,3,3,11,40,10,118,32,05,08,023,37,29,04,086,38*47
$BDGSV,3,1,10,24,49,247,15,12,37,250,,13,26,041,34,26,25,192,17*6E
$BDGSV,3,2,10,25,24,315,26,08,18,034,32,20,18,043,36,19,17,093,45*61
$BDGSV,3,3,10,05,09,114,28,29,08,073,43*6B
$GNGLL,5454.1478,N,00121.5002,W,205654.000,A,D*5F
$GNRMC,205655.000,A,5454.1478,N,00121.5002,W,0.00,87.00,110122,,,D*57
$GNVTG,87.00,T,,M,0.00,N,0.00,K,D*19
$GNGGA,205655.000,5454.1478,N,00121.5002,W,2,16,0.64,18.2,M,47.6,M,,*56
$GPGSA,A,3,18,16,27,05,07,23,26,10,,,,,1.00,0.64,0.76*0D
$BDGSA,A,3,26,08,20,29,24,25,13,19,,,,,1.00,0.64,0.76*1F
$GPGSV,3,1,11,16,74,250,23,18,54,069,40,26,51,166,30,27,49,271,22*74
$GPGSV,3,2,11,23,30,121,37,08,18,271,,07,14,329,26,10,14,149,32*7E
$GPGSV,3,3,11,40,10,118,32,05,08,023,38,29,04,086,38*48
$BDGSV,3,1,10,24,49,247,17,12,37,250,,13,26,041,34,26,25,192,17*6C
$BDGSV,3,2,10,25,24,315,26,08,18,034,32,20,18,043,36,19,17,093,45*61
$BDGSV,3,3,10,05,09,114,28,29,08,073,43*6B
$GNGLL,5454.1478,N,00121.5002,W,205655.000,A,D*5E
$GNRMC,205656.000,A,5454.1478,N,00121.5002,W,0.00,87.00,110122,,,D*54
$GNVTG,87.00,T,,M,0.00,N,0.00,K,D*19
$GNGGA,205656.000,5454.1478,N,00121.5002,W,2,16,0.68,18.2,M,47.6,M,,*59
$GPGSA,A,3,18,16,27,05,07,23,26,10,,,,,1.36,0.68,1.18*0D
$BDGSA,A,3,26,08,20,29,24,25,13,19,,,,,1.36,0.68,1.18*1F
$GPGSV,3,1,11,16,74,250,23,18,54,069,40,26,51,166,30,27,49,271,22*74
$GPGSV,3,2,11,23,30,121,37,08,18,271,,07,14,329,26,10,14,149,32*7E
$GPGSV,3,3,11,40,10,118,32,05,08,023,38,29,04,086,38*48
$BDGSV,3,1,10,24,49,247,17,12,37,250,,13,26,041,35,26,25,192,17*6D
$BDGSV,3,2,10,25,24,315,26,08,18,034,32,20,18,043,36,19,17,093,45*61
$BDGSV,3,3,10,05,09,114,28,29,08,073,43*6B
$GNGLL,5454.1478,N,00121.5002,W,205656.000,A,D*5D
$GNRMC,205657.000,A,5454.1478,N,00121.5002,W,0.00,87.00,110122,,,D*55
$GNVTG,87.00,T,,M,0.00,N,0.00,K,D*19
$GNGGA,205657.000,5454.1478,N,00121.5002,W,2,15,0.70,18.2,M,47.6,M,,*52
$GPGSA,A,3,18,16,27,05,07,23,26,10,,,,,1.38,0.70,1.19*0B
$BDGSA,A,3,26,08,20,29,25,13,19,,,,,,1.38,0.70,1.19*1F
$GPGSV,3,1,11,16,74,250,23,18,54,069,40,26,51,166,30,27,49,271,22*74
$GPGSV,3,2,11,23,30,121,37,08,18,271,,07,14,329,26,10,14,149,32*7E
$GPGSV,3,3,11,40,10,118,32,05,08,023,38,29,04,086,39*49
$BDGSV,3,1,10,24,49,247,16,12,37,250,,13,26,041,35,26,25,192,17*6C
$BDGSV,3,2,10,25,24,315,26,08,18,034,32,20,18,043,36,19,17,093,45*61
$BDGSV,3,3,10,05,09,114,28,29,08,073,43*6B
$GNGLL,5454.1478,N,00121.5002,W,205657.000,A,D*5C
$GNRMC,205658.000,A,5454.1478,N,00121.5002,W,0.00,87.00,110122,,,D*5A
$GNVTG,87.00,T,,M,0.00,N,0.00,K,D*19
$GNGGA,205658.000,5454.1478,N,00121.5002,W,2,15,0.70,18.2,M,47.6,M,,*5D
$GPGSA,A,3,18,16,27,05,07,23,26,10,,,,,1.38,0.70,1.19*0B
$BDGSA,A,3,26,08,20,29,25,13,19,,,,,,1.38,0.70,1.19*1F
$GPGSV,3,1,11,16,74,250,23,18,54,069,40,26,51,166,30,27,49,271,21*77
$GPGSV,3,2,11,23,30,121,37,08,18,271,,07,14,329,26,10,14,149,32*7E
$GPGSV,3,3,11,40,10,118,32,05,08,023,38,29,04,086,39*49
$BDGSV,3,1,10,24,49,247,15,12,37,250,,13,26,041,35,26,25,192,17*6F
$BDGSV,3,2,10,25,24,315,26,08,18,034,32,20,18,043,36,19,17,093,45*61
$BDGSV,3,3,10,05,09,114,28,29,08,073,43*6B
$GNGLL,5454.1478,N,00121.5002,W,205658.000,A,D*53
$GNRMC,205659.000,A,5454.1478,N,00121.5002,W,0.00,87.00,110122,,,D*5B
$GNVTG,87.00,T,,M,0.00,N,0.00,K,D*19
$GNGGA,205659.000,5454.1478,N,00121.5002,W,2,15,0.67,18.2,M,47.6,M,,*5A
$GPGSA,A,3,18,16,27,05,07,23,26,10,,,,,1.02,0.67,0.77*0D
$BDGSA,A,3,26,08,20,29,25,13,19,,,,,,1.02,0.67,0.77*19
$GPGSV,3,1,11,16,75,246,23,18,54,069,40,26,51,166,30,27,49,271,21*71
$GPGSV,3,2,11,23,30,121,37,08,18,271,,07,14,329,26,10,14,149,32*7E
$GPGSV,3,3,11,40,10,118,32,05,08,023,38,29,04,086,39*49
$BDGSV,3,1,10,24,49,247,13,12,37,250,,13,26,041,35,26,25,192,18*66
$BDGSV,3,2,10,25,24,315,26,08,18,034,32,20,18,043,36,19,17,093,45*61
$BDGSV,3,3,10,05,09,114,28,29,08,073,43*6B
$GNGLL,5454.1478,N,00121.5002,W,205659.000,A,D*52
$GNRMC,205700.000,A,5454.1478,N,00121.5002,W,0.00,87.00,110122,,,D*56
$GNVTG,87.00,T,,M,0.00,N,0.00,K,D*19
$GNGGA,205700.000,5454.1478,N,00121.5002,W,2,14,0.80,18.2,M,47.6,M,,*5F
$GPGSA,A,3,18,16,27,05,07,23,26,10,,,,,1.51,0.80,1.28*09
$BDGSA,A,3,08,20,29,25,13,19,,,,,,,1.51,0.80,1.28*19
$GPGSV,3,1,11,16,75,246,23,18,54,069,40,26,51,166,30,27,49,271,20*70
$GPGSV,3,2,11,23,30,121,37,08,18,271,,07,14,329,25,10,14,149,32*7D
$GPGSV,3,3,11,40,10,118,33,05,08,023,38,29,04,086,39*48
$BDGSV,3,1,10,24,49,247,09,12,37,250,,13,26,041,35,26,25,192,19*6C
$BDGSV,3,2,10,25,24,315,25,08,18,034,32,20,18,043,36,19,17,093,45*62
$BDGSV,3,3,10,05,09,114,28,29,08,073,43*6B
$GNGLL,5454.1478,N,00121.5002,W,205700.000,A,D*5F
$GNRMC,205701.000,A,5454.1478,N,00121.5002,W,0.00,87.00,110122,,,D*57
$GNVTG,87.00,T,,M,0.00,N,0.00,K,D*19
$GNGGA,205701.000,5454.1478,N,00121.5002,W,2,14,0.73,18.2,M,47.6,M,,*52
$GPGSA,A,3,18,16,05,07,23,26,10,,,,,,1.41,0.73,1.21*08
$BDGSA,A,3,26,08,20,29,
                       $GPGSV,3,1,11,16,75,246,23,18,54,068,40,26,51,166,30,27,49,271,19*7B
$GPGSV,3,2,11,23,30,121,37,08,18,271,,07,14,329,24,10,14,149,31*7F
$GPGSV,3,3,11,40,10,118,33,05,08,023,38,29,04,086,39*48
$BDGSV,3,1,10,24,49,247,,12,37,250,,13,26,041,35,26,25,192,18*64
$BDGSV,3,2,10,25,24,315,25,08,18,034,32,20,18,043,36,19,17,093,45*62
$BDGSV,3,3,10,05,09,114,28,29,08,073,43*6B
$GNGLL,5454.1478,N,00121.5002,W,205701.000,A,D*5E
$GNRMC,205702.000,A,5454.1478,N,00121.5002,W,0.00,87.00,110122,,,D*54
$GNVTG,87.00,T,,M,0.00,N,0.00,K,D*19
$GNGGA,205702.000,5454.1478,N,00121.5002,W,2,13,0.84,18.2,M,47.6,M,,*5E
$GPGSA,A,3,18,16,05,07,23,26,10,,,,,,1.54,0.84,1.29*0C
$BDGSA,A,3,08,20,29,25,13,19,,,,,,,1.54,0.84,1.29*19
$GPGSV,3,1,11,16,75,246,22,18,54,068,40,26,51,166,30,27,49,271,18*7B
$GPGSV,3,2,11,23,30,121,37,08,18,271,,07,14,329,24,10,14,149,30*7E
$GPGSV,3,3,11,40,10,118,33,05,08,023,38,29,04,086,39*48
$BDGSV,3,1,10,24,49,247,,12,37,250,,13,26,041,35,26,25,192,17*6B
$BDGSV,3,2,10,25,24,315,25,08,18,034,32,20,18,043,36,19,17,093,44*63
$BDGSV,3,3,10,05,09,114,28,29,08,073,43*6B
$GNGLL,5454.1478,N,00121.5002,W,205702.000,A,D*5D
$GNRMC,205703.000,A,5454.1478,N,00121.5002,W,0.00,87.00,110122,,,D*55
$GNVTG,87.00,T,,M,0.00,N,0.00,K,D*19
$GNGGA,205703.000,5454.1478,N,00121.5002,W,2,13,0.84,18.2,M,47.6,M,,*5F
$GPGSA,A,3,18,16,05,07,23,26,10,,,,,,1.54,0.84,1.29*0C
$BDGSA,A,3,08,20,29,25,13,19,,,,,,,1.54,0.84,1.29*19
$GPGSV,3,1,11,16,75,246,22,18,54,068,40,26,51,166,30,27,49,271,17*74
$GPGSV,3,2,11,23,30,121,37,08,18,271,,07,14,329,24,10,14,149,30*7E
$GPGSV,3,3,11,40,10,118,33,05,08,023,38,29,04,086,39*48
$BDGSV,3,1,10,24,49,247,,12,37,250,,13,26,041,35,26,25,192,18*64
$BDGSV,3,2,10,25,24,315,2
